[
  {
    "name": "Carrera 81 con Calle 42c",
    "lat": 6.2320,
    "lon": -75.5900
  },
  {
    "name": "Br. Laureles (Av. 80 - Cl. 37d)",
    "lat": 6.2457,
    "lon": -75.5918
  },
  {
    "name": "Lava Autos La 80 Carrera 81",
    "lat": 6.2412,
    "lon": -75.5923
  },
  {
    "name": "Br. Santa Gema (Av. 80 - Cl. 33b)",
    "lat": 6.2384,
    "lon": -75.5940
  },
  {
    "name": "Glorieta Santa Gema (Av. 80 - Cl. 33)",
    "lat": 6.2380,
    "lon": -75.5943
  },
  {
    "name": "Br. Villa de Aburrá (Av. 80 - Cl. 32a)",
    "lat": 6.2368,
    "lon": -75.5951
  },
  {
    "name": "Br. La Palma (Av. 80 - Cl. 30a)",
    "lat": 6.2347,
    "lon": -75.5968
  },
  {
    "name": "Br. La Palma (Av. 80 - Cl. 28)",
    "lat": 6.2323,
    "lon": -75.5980
  },
  {
    "name": "Instituto San Carlos (Av. 80 - Cl. 19)",
    "lat": 6.2269,
    "lon": -75.6052
  },
  {
    "name": "Centro Comercial Mall Gran Vía (Av. 80 - Cr. 76)",
    "lat": 6.2334,
    "lon": -75.5974
  },
  {
    "name": "Fábrica de Licores y Alcoholes de Antioquia (Cl. 12 Sur - Cr. 50c)",
    "lat": 6.2108,
    "lon": -75.6011
  },
  {
    "name": "Sura Aguacatala",
    "lat": 6.2078,
    "lon": -75.5949
  },
  {
    "name": "Las Vegas, Aguacatala",
    "lat": 6.2050,
    "lon": -75.5919
  },
  {
    "name": "Eafit (Av. Las Vegas)",
    "lat": 6.2041,
    "lon": -75.5889
  },
  {
    "name": "Politécnico Jaime Isaza Cadavid",
    "lat": 6.2032,
    "lon": -75.5895
  },
  {
    "name": "C.C. Monterrey (Cra. 48 con Cl. 16)",
    "lat": 6.2649,
    "lon": -75.5743
  },
  {
    "name": "Ciudad del Río (Cra. 48 con Cl. 17)",
    "lat": 6.2621,
    "lon": -75.5759
  },
  {
    "name": "Mercados del Río (Cra. 48 con Cl. 24)",
    "lat": 6.2590,
    "lon": -75.5782
  },
  {
    "name": "Perpetuo Socorro (Cra. 50)",
    "lat": 6.2552,
    "lon": -75.5807
  },
  {
    "name": "Estación Exposiciones Metro",
    "lat": 6.2556,
    "lon": -75.5813
  },
  {
    "name": "Parque San Antonio (Av. Oriental)",
    "lat": 6.2452,
    "lon": -75.5663
  },
  {
    "name": "Prado (Calle 58)",
    "lat": 6.2815,
    "lon": -75.5720
  },
  {
    "name": "Plaza Minorista",
    "lat": 6.2998,
    "lon": -75.5609
  },
  {
    "name": "Estación Cisneros",
    "lat": 6.2527,
    "lon": -75.5669
  },
  {
    "name": "La Macarena",
    "lat": 6.2574,
    "lon": -75.5717
  },
  {
    "name": "Estación Texaco (Cl. 44)",
    "lat": 6.2436,
    "lon": -75.5827
  },
  {
    "name": "Plaza Mercado La América",
    "lat": 6.2409,
    "lon": -75.6134
  },
  {
    "name": "Avenida San Juan",
    "lat": 6.2420,
    "lon": -75.6025
  }
]